[
    {
        "userId": 111,
        "lat": 52.092346,
        "long": 6.976373,
        "radius": 10,
        "owner": "Hr. & Fr. Ten Peze",
        "address": "",
        "tel": "",
        "email": "",
        "city": "Ahaus",
        "url": ""
    },
    {
        "userId": 125,
        "lat": 52.555071,
        "long": 13.727736,
        "radius": 3000,
        "owner": "Frank Stanislowsky",
        "address": "",
        "tel": "",
        "email": "",
        "city": "Altlandsberg",
        "url": ""
    },
    {
        "userId": 82,
        "lat": 52.370216,
        "long": 4.895168,
        "radius": 3000,
        "owner": "VDV-Shipping B.V.",
        "address": "",
        "tel": "",
        "email": "",
        "city": "Amsterdam",
        "url": ""
    },
    {
        "userId": 29,
        "lat": 52.485570,
        "long": 13.320040,
        "radius": 3000,
        "owner": "Aileen Hammer",
        "address": "",
        "tel": "",
        "email": "",
        "city": "Berlin",
        "url": ""
    },
    {
        "userId": 33,
        "lat": 52.505694,
        "long": 13.432722,
        "radius": 3000,
        "owner": "Kaffee Helden GbR (1/2)",
        "address": "Eberhard-Roters-Platz 13, Berlin 10965",
        "tel": "+49 (0) 178 5665950",
        "email": "simon.heidrich@coffee-bike.com",
        "city": "Berlin",
        "url": "kaffeehelden-berlin"
    },
    {
        "userId": 69,
        "lat": 52.474361,
        "long": 13.391583,
        "radius": 3000,
        "owner": "Kaffee Helden GbR (2/2)",
        "address": "Eberhard-Roters-Platz 13, Berlin 10965",
        "tel": "+49 (0) 178 5665950",
        "email": "simon.heidrich@coffee-bike.com",
        "city": "Berlin",
        "url": "kaffeehelden-berlin"
    }
]
